{
  "type": "FeatureCollection",
  "name": "cities",
  "crs": {
    "type": "name",
    "properties": {
      "name": "urn:ogc:def:crs:OGC:1.3:CRS84"
    }
  },
  "features": [
    {
      "type": "Feature",
      "properties": {
        "name": "Colonia del Sacramento",
        "worldcity": 0.0,
        "megacity": 0,
        "latitude": -34.479999005400003,
        "longitude": -57.840002473399998,
        "pop_max": 21714,
        "pop_min": 21714,
        "pop_other": 0
      },
      "geometry": {
        "type": "Point",
        "coordinates": [
          -57.840002473401341,
          -34.47999900541754
        ]
      }
    },
    {
      "type": "Feature",
      "properties": {
        "name": "Trinidad",
        "worldcity": 0.0,
        "megacity": 0,
        "latitude": -33.543998937399998,
        "longitude": -56.900996560199999,
        "pop_max": 21093,
        "pop_min": 21093,
        "pop_other": 0
      },
      "geometry": {
        "type": "Point",
        "coordinates": [
          -56.900996560158717,
          -33.543998937360698
        ]
      }
    },
    {
      "type": "Feature",
      "properties": {
        "name": "Fray Bentos",
        "worldcity": 0.0,
        "megacity": 0,
        "latitude": -33.138999028800001,
        "longitude": -58.303997471899997,
        "pop_max": 23279,
        "pop_min": 23279,
        "pop_other": 0
      },
      "geometry": {
        "type": "Point",
        "coordinates": [
          -58.303997471909497,
          -33.1389990288435
        ]
      }
    },
    {
      "type": "Feature",
      "properties": {
        "name": "Canelones",
        "worldcity": 0.0,
        "megacity": 0,
        "latitude": -34.5380040067,
        "longitude": -56.284001493200002,
        "pop_max": 19698,
        "pop_min": 19698,
        "pop_other": 0
      },
      "geometry": {
        "type": "Point",
        "coordinates": [
          -56.284001493243068,
          -34.538004006675465
        ]
      }
    },
    {
      "type": "Feature",
      "properties": {
        "name": "Florida",
        "worldcity": 0.0,
        "megacity": 0,
        "latitude": -34.099002005199999,
        "longitude": -56.214998448000003,
        "pop_max": 32234,
        "pop_min": 32234,
        "pop_other": 0
      },
      "geometry": {
        "type": "Point",
        "coordinates": [
          -56.214998447994162,
          -34.099002005217187
        ]
      }
    },
    {
      "type": "Feature",
      "properties": {
        "name": "Bassar",
        "worldcity": 0.0,
        "megacity": 0,
        "latitude": 9.2610000683199996,
        "longitude": 0.78900357377999997,
        "pop_max": 61845,
        "pop_min": 61845,
        "pop_other": 0
      },
      "geometry": {
        "type": "Point",
        "coordinates": [
          0.789003573778132,
          9.26100006831723
        ]
      }
    },
    {
      "type": "Feature",
      "properties": {
        "name": "Sotouboua",
        "worldcity": 0.0,
        "megacity": 0,
        "latitude": 8.5570021330599992,
        "longitude": 0.98499646233000004,
        "pop_max": 21054,
        "pop_min": 21054,
        "pop_other": 0
      },
      "geometry": {
        "type": "Point",
        "coordinates": [
          0.98499646233131,
          8.557002133057097
        ]
      }
    },
    {
      "type": "Feature",
      "properties": {
        "name": "Medenine",
        "worldcity": 0.0,
        "megacity": 0,
        "latitude": 33.399999002500003,
        "longitude": 10.416699557599999,
        "pop_max": 61705,
        "pop_min": 61705,
        "pop_other": 0
      },
      "geometry": {
        "type": "Point",
        "coordinates": [
          10.416699557596701,
          33.399999002467325
        ]
      }
    },
    {
      "type": "Feature",
      "properties": {
        "name": "Kebili",
        "worldcity": 0.0,
        "megacity": 0,
        "latitude": 33.689997034900003,
        "longitude": 8.9710025379000005,
        "pop_max": 19875,
        "pop_min": 19875,
        "pop_other": 0
      },
      "geometry": {
        "type": "Point",
        "coordinates": [
          8.9710025379012,
          33.689997034920566
        ]
      }
    },
    {
      "type": "Feature",
      "properties": {
        "name": "Tataouine",
        "worldcity": 0.0,
        "megacity": 0,
        "latitude": 33.000003154300003,
        "longitude": 10.4667035894,
        "pop_max": 62577,
        "pop_min": 62577,
        "pop_other": 0
      },
      "geometry": {
        "type": "Point",
        "coordinates": [
          10.466703589415545,
          33.000003154320837
        ]
      }
    },
    {
      "type": "Feature",
      "properties": {
        "name": "L'Ariana",
        "worldcity": 0.0,
        "megacity": 0,
        "latitude": 36.866673153400001,
        "longitude": 10.199997547500001,
        "pop_max": 97687,
        "pop_min": 97687,
        "pop_other": 0
      },
      "geometry": {
        "type": "Point",
        "coordinates": [
          10.199997547479256,
          36.866673153444935
        ]
      }
    },
    {
      "type": "Feature",
      "properties": {
        "name": "Jendouba",
        "worldcity": 0.0,
        "megacity": 0,
        "latitude": 36.500004059399998,
        "longitude": 8.7499986145800008,
        "pop_max": 51408,
        "pop_min": 51408,
        "pop_other": 0
      },
      "geometry": {
        "type": "Point",
        "coordinates": [
          8.749998614579113,
          36.500004059426146
        ]
      }
    },
    {
      "type": "Feature",
      "properties": {
        "name": "Kasserine",
        "worldcity": 0.0,
        "megacity": 0,
        "latitude": 35.216703104799997,
        "longitude": 8.71669850332,
        "pop_max": 76243,
        "pop_min": 76243,
        "pop_other": 0
      },
      "geometry": {
        "type": "Point",
        "coordinates": [
          8.716698503320458,
          35.216703104824205
        ]
      }
    },
    {
      "type": "Feature",
      "properties": {
        "name": "Sdid Bouzid",
        "worldcity": 0.0,
        "megacity": 0,
        "latitude": 35.016696079100001,
        "longitude": 9.5000044822599996,
        "pop_max": 42098,
        "pop_min": 42098,
        "pop_other": 0
      },
      "geometry": {
        "type": "Point",
        "coordinates": [
          9.500004482255633,
          35.01669607914971
        ]
      }
    },
    {
      "type": "Feature",
      "properties": {
        "name": "Siliana",
        "worldcity": 0.0,
        "megacity": 0,
        "latitude": 36.083304125200002,
        "longitude": 9.3833015996599993,
        "pop_max": 26960,
        "pop_min": 26960,
        "pop_other": 0
      },
      "geometry": {
        "type": "Point",
        "coordinates": [
          9.383301599658637,
          36.083304125235486
        ]
      }
    },
    {
      "type": "Feature",
      "properties": {
        "name": "Mahdia",
        "worldcity": 0.0,
        "megacity": 0,
        "latitude": 35.4839130445,
        "longitude": 11.0408766153,
        "pop_max": 45977,
        "pop_min": 45977,
        "pop_other": 0
      },
      "geometry": {
        "type": "Point",
        "coordinates": [
          11.040876615321963,
          35.483913044502685
        ]
      }
    },
    {
      "type": "Feature",
      "properties": {
        "name": "Monastir",
        "worldcity": 0.0,
        "megacity": 0,
        "latitude": 35.730702135199998,
        "longitude": 10.7672945619,
        "pop_max": 71546,
        "pop_min": 41400,
        "pop_other": 0
      },
      "geometry": {
        "type": "Point",
        "coordinates": [
          10.767294561862002,
          35.730702135151205
        ]
      }
    },
    {
      "type": "Feature",
      "properties": {
        "name": "Zaghouan",
        "worldcity": 0.0,
        "megacity": 0,
        "latitude": 36.399996161300002,
        "longitude": 10.1469966066,
        "pop_max": 16911,
        "pop_min": 16911,
        "pop_other": 0
      },
      "geometry": {
        "type": "Point",
        "coordinates": [
          10.146996606592154,
          36.399996161271929
        ]
      }
    },
    {
      "type": "Feature",
      "properties": {
        "name": "Tây Ninh",
        "worldcity": 0.0,
        "megacity": 0,
        "latitude": 11.3229991094,
        "longitude": 106.146999683,
        "pop_max": 126370,
        "pop_min": 126370,
        "pop_other": 0
      },
      "geometry": {
        "type": "Point",
        "coordinates": [
          106.146999683054162,
          11.322999109363707
        ]
      }
    },
    {
      "type": "Feature",
      "properties": {
        "name": "Luan Chau",
        "worldcity": 0.0,
        "megacity": 0,
        "latitude": 21.7400039919,
        "longitude": 103.34300468000001,
        "pop_max": 7335,
        "pop_min": 7335,
        "pop_other": 0
      },
      "geometry": {
        "type": "Point",
        "coordinates": [
          103.34300467988777,
          21.740003991855076
        ]
      }
    },
    {
      "type": "Feature",
      "properties": {
        "name": "Bắc Kạn",
        "worldcity": 0.0,
        "megacity": 0,
        "latitude": 22.1333333,
        "longitude": 105.8333333,
        "pop_max": 29227,
        "pop_min": 29227,
        "pop_other": 0
      },
      "geometry": {
        "type": "Point",
        "coordinates": [
          105.833333300000106,
          22.133333299999947
        ]
      }
    },
    {
      "type": "Feature",
      "properties": {
        "name": "Lạng Sơn",
        "worldcity": 0.0,
        "megacity": 0,
        "latitude": 21.845997102999998,
        "longitude": 106.75700157599999,
        "pop_max": 148000,
        "pop_min": 148000,
        "pop_other": 0
      },
      "geometry": {
        "type": "Point",
        "coordinates": [
          106.757001576015341,
          21.845997102995341
        ]
      }
    },
    {
      "type": "Feature",
      "properties": {
        "name": "Sơn La",
        "worldcity": 0.0,
        "megacity": 0,
        "latitude": 21.328002138700001,
        "longitude": 103.91000465099999,
        "pop_max": 19054,
        "pop_min": 19054,
        "pop_other": 0
      },
      "geometry": {
        "type": "Point",
        "coordinates": [
          103.910004651101929,
          21.328002138749298
        ]
      }
    },
    {
      "type": "Feature",
      "properties": {
        "name": "Tuyên Quang",
        "worldcity": 0.0,
        "megacity": 0,
        "latitude": 21.817998095299998,
        "longitude": 105.21099961500001,
        "pop_max": 36430,
        "pop_min": 36430,
        "pop_other": 0
      },
      "geometry": {
        "type": "Point",
        "coordinates": [
          105.210999614997377,
          21.817998095275925
        ]
      }
    },
    {
      "type": "Feature",
      "properties": {
        "name": "Yên Bái",
        "worldcity": 0.0,
        "megacity": 0,
        "latitude": 21.705003039499999,
        "longitude": 104.87500258599999,
        "pop_max": 96540,
        "pop_min": 96540,
        "pop_other": 0
      },
      "geometry": {
        "type": "Point",
        "coordinates": [
          104.875002586245273,
          21.70500303954708
        ]
      }
    },
    {
      "type": "Feature",
      "properties": {
        "name": "Hai Duong",
        "worldcity": 0.0,
        "megacity": 0,
        "latitude": 20.942001078200001,
        "longitude": 106.331004604,
        "pop_max": 58030,
        "pop_min": 58030,
        "pop_other": 0
      },
      "geometry": {
        "type": "Point",
        "coordinates": [
          106.331004604367081,
          20.94200107817835
        ]
      }
    },
    {
      "type": "Feature",
      "properties": {
        "name": "Thái Bình",
        "worldcity": 0.0,
        "megacity": 0,
        "latitude": 20.4503041151,
        "longitude": 106.33302962800001,
        "pop_max": 210000,
        "pop_min": 210000,
        "pop_other": 0
      },
      "geometry": {
        "type": "Point",
        "coordinates": [
          106.33302962790475,
          20.450304115118911
        ]
      }
    },
    {
      "type": "Feature",
      "properties": {
        "name": "Tuy Hòa",
        "worldcity": 0.0,
        "megacity": 0,
        "latitude": 13.0820040243,
        "longitude": 109.31599868399999,
        "pop_max": 69596,
        "pop_min": 69596,
        "pop_other": 0
      },
      "geometry": {
        "type": "Point",
        "coordinates": [
          109.315998683660439,
          13.082004024264734
        ]
      }
    },
    {
      "type": "Feature",
      "properties": {
        "name": "Thu Dau Mot",
        "worldcity": 0.0,
        "megacity": 0,
        "latitude": 10.9690740774,
        "longitude": 106.65274554699999,
        "pop_max": 244277,
        "pop_min": 244277,
        "pop_other": 0
      },
      "geometry": {
        "type": "Point",
        "coordinates": [
          106.652745546845551,
          10.969074077424182
        ]
      }
    },
    {
      "type": "Feature",
      "properties": {
        "name": "Đông Hà",
        "worldcity": 0.0,
        "megacity": 0,
        "latitude": 16.849998103200001,
        "longitude": 107.13330066100001,
        "pop_max": 17662,
        "pop_min": 17662,
        "pop_other": 0
      },
      "geometry": {
        "type": "Point",
        "coordinates": [
          107.133300660614509,
          16.849998103207497
        ]
      }
    },
    {
      "type": "Feature",
      "properties": {
        "name": "Cao Lãnh",
        "worldcity": 0.0,
        "megacity": 0,
        "latitude": 10.467000130500001,
        "longitude": 105.635997562,
        "pop_max": 149837,
        "pop_min": 149837,
        "pop_other": 0
      },
      "geometry": {
        "type": "Point",
        "coordinates": [
          105.63599756179525,
          10.467000130546751
        ]
      }
    },
    {
      "type": "Feature",
      "properties": {
        "name": "Truc Giang",
        "worldcity": 0.0,
        "megacity": 0,
        "latitude": 10.234997997800001,
        "longitude": 106.374996615,
        "pop_max": 59442,
        "pop_min": 59442,
        "pop_other": 0
      },
      "geometry": {
        "type": "Point",
        "coordinates": [
          106.37499661484685,
          10.234997997750156
        ]
      }
    },
    {
      "type": "Feature",
      "properties": {
        "name": "Tra Vinh",
        "worldcity": 0.0,
        "megacity": 0,
        "latitude": 9.9340020867900005,
        "longitude": 106.334001679,
        "pop_max": 131360,
        "pop_min": 131360,
        "pop_other": 0
      },
      "geometry": {
        "type": "Point",
        "coordinates": [
          106.33400167891898,
          9.93400208678969
        ]
      }
    },
    {
      "type": "Feature",
      "properties": {
        "name": "Vĩnh Long",
        "worldcity": 0.0,
        "megacity": 0,
        "latitude": 10.256003997000001,
        "longitude": 105.964002557,
        "pop_max": 103314,
        "pop_min": 103314,
        "pop_other": 0
      },
      "geometry": {
        "type": "Point",
        "coordinates": [
          105.964002557225797,
          10.25600399699897
        ]
      }
    },
    {
      "type": "Feature",
      "properties": {
        "name": "Cao Bằng",
        "worldcity": 0.0,
        "megacity": 0,
        "latitude": 22.663998055,
        "longitude": 106.268004644,
        "pop_max": 41112,
        "pop_min": 41112,
        "pop_other": 0
      },
      "geometry": {
        "type": "Point",
        "coordinates": [
          106.268004644339612,
          22.663998054952572
        ]
      }
    },
    {
      "type": "Feature",
      "properties": {
        "name": "Yoro",
        "worldcity": 0.0,
        "megacity": 0,
        "latitude": 15.059997106000001,
        "longitude": -87.290000538399994,
        "pop_max": 15774,
        "pop_min": 15774,
        "pop_other": 0
      },
      "geometry": {
        "type": "Point",
        "coordinates": [
          -87.290000538443962,
          15.059997106034928
        ]
      }
    },
    {
      "type": "Feature",
      "properties": {
        "name": "La Esperanza",
        "worldcity": 0.0,
        "megacity": 0,
        "latitude": 14.3330040579,
        "longitude": -88.166699537200003,
        "pop_max": 5318,
        "pop_min": 5318,
        "pop_other": 0
      },
      "geometry": {
        "type": "Point",
        "coordinates": [
          -88.166699537223792,
          14.333004057942389
        ]
      }
    },
    {
      "type": "Feature",
      "properties": {
        "name": "La Paz",
        "worldcity": 0.0,
        "megacity": 0,
        "latitude": 14.3199990281,
        "longitude": -87.684002568500006,
        "pop_max": 17555,
        "pop_min": 17555,
        "pop_other": 0
      },
      "geometry": {
        "type": "Point",
        "coordinates": [
          -87.684002568453934,
          14.319999028132543
        ]
      }
    },
    {
      "type": "Feature",
      "properties": {
        "name": "Santa Bárbara",
        "worldcity": 0.0,
        "megacity": 0,
        "latitude": 14.9190030426,
        "longitude": -88.235999625600002,
        "pop_max": 15119,
        "pop_min": 15119,
        "pop_other": 0
      },
      "geometry": {
        "type": "Point",
        "coordinates": [
          -88.235999625641,
          14.91900304258661
        ]
      }
    },
    {
      "type": "Feature",
      "properties": {
        "name": "Gracias",
        "worldcity": 0.0,
        "megacity": 0,
        "latitude": 14.583303057,
        "longitude": -88.583300512199997,
        "pop_max": 7909,
        "pop_min": 7909,
        "pop_other": 0
      },
      "geometry": {
        "type": "Point",
        "coordinates": [
          -88.583300512186156,
          14.583303057002922
        ]
      }
    },
    {
      "type": "Feature",
      "properties": {
        "name": "Nueva Ocotepeque",
        "worldcity": 0.0,
        "megacity": 0,
        "latitude": 14.436999119399999,
        "longitude": -89.181998547399999,
        "pop_max": 8780,
        "pop_min": 8780,
        "pop_other": 0
      },
      "geometry": {
        "type": "Point",
        "coordinates": [
          -89.18199854735434,
          14.436999119381539
        ]
      }
    },
    {
      "type": "Feature",
      "properties": {
        "name": "Yuscarán",
        "worldcity": 0.0,
        "megacity": 0,
        "latitude": 13.9439969867,
        "longitude": -86.850998536999995,
        "pop_max": 2371,
        "pop_min": 2371,
        "pop_other": 0
      },
      "geometry": {
        "type": "Point",
        "coordinates": [
          -86.850998536985799,
          13.943996986701904
        ]
      }
    },
    {
      "type": "Feature",
      "properties": {
        "name": "Jérémie",
        "worldcity": 0.0,
        "megacity": 0,
        "latitude": 18.6339347272,
        "longitude": -74.118425263399999,
        "pop_max": 30917,
        "pop_min": 30917,
        "pop_other": 0
      },
      "geometry": {
        "type": "Point",
        "coordinates": [
          -74.11842526340854,
          18.633934727219639
        ]
      }
    },
    {
      "type": "Feature",
      "properties": {
        "name": "Port-De-Paix",
        "worldcity": 0.0,
        "megacity": 0,
        "latitude": 19.931760076100002,
        "longitude": -72.829484523100007,
        "pop_max": 34657,
        "pop_min": 34657,
        "pop_other": 0
      },
      "geometry": {
        "type": "Point",
        "coordinates": [
          -72.829484523122801,
          19.93176007609145
        ]
      }
    },
    {
      "type": "Feature",
      "properties": {
        "name": "Hinche",
        "worldcity": 0.0,
        "megacity": 0,
        "latitude": 19.143000086699999,
        "longitude": -72.003995601100002,
        "pop_max": 18590,
        "pop_min": 18590,
        "pop_other": 0
      },
      "geometry": {
        "type": "Point",
        "coordinates": [
          -72.003995601070244,
          19.143000086716199
        ]
      }
    },
    {
      "type": "Feature",
      "properties": {
        "name": "Fort-Liberté",
        "worldcity": 0.0,
        "megacity": 0,
        "latitude": 19.6655670335,
        "longitude": -71.844839540500004,
        "pop_max": 11465,
        "pop_min": 11465,
        "pop_other": 0
      },
      "geometry": {
        "type": "Point",
        "coordinates": [
          -71.844839540540306,
          19.66556703349886
        ]
      }
    },
    {
      "type": "Feature",
      "properties": {
        "name": "Jacmel",
        "worldcity": 0.0,
        "megacity": 0,
        "latitude": 18.234999026400001,
        "longitude": -72.537002580899994,
        "pop_max": 33563,
        "pop_min": 33563,
        "pop_other": 0
      },
      "geometry": {
        "type": "Point",
        "coordinates": [
          -72.537002580944943,
          18.234999026379057
        ]
      }
    },
    {
      "type": "Feature",
      "properties": {
        "name": "Kırklareli",
        "worldcity": 0.0,
        "megacity": 0,
        "latitude": 41.742999169900003,
        "longitude": 27.225999615700001,
        "pop_max": 58223,
        "pop_min": 58223,
        "pop_other": 0
      },
      "geometry": {
        "type": "Point",
        "coordinates": [
          27.225999615690228,
          41.742999169920381
        ]
      }
    },
    {
      "type": "Feature",
      "properties": {
        "name": "Bilecik",
        "worldcity": 0.0,
        "megacity": 0,
        "latitude": 40.149999022300001,
        "longitude": 29.982996597700001,
        "pop_max": 40285,
        "pop_min": 40285,
        "pop_other": 0
      },
      "geometry": {
        "type": "Point",
        "coordinates": [
          29.982996597707256,
          40.149999022269185
        ]
      }
    },
    {
      "type": "Feature",
      "properties": {
        "name": "Sakarya",
        "worldcity": 0.0,
        "megacity": 0,
        "latitude": 40.766661136099998,
        "longitude": 30.4000025112,
        "pop_max": 286787,
        "pop_min": 286787,
        "pop_other": 0
      },
      "geometry": {
        "type": "Point",
        "coordinates": [
          30.400002511183743,
          40.766661136062623
        ]
      }
    },
    {
      "type": "Feature",
      "properties": {
        "name": "Kastamonu",
        "worldcity": 0.0,
        "megacity": 0,
        "latitude": 41.3890021526,
        "longitude": 33.783003490500001,
        "pop_max": 70402,
        "pop_min": 70402,
        "pop_other": 0
      },
      "geometry": {
        "type": "Point",
        "coordinates": [
          33.783003490523583,
          41.389002152589001
        ]
      }
    },
    {
      "type": "Feature",
      "properties": {
        "name": "Burdur",
        "worldcity": 0.0,
        "megacity": 0,
        "latitude": 37.716660110900001,
        "longitude": 30.283335538500001,
        "pop_max": 66158,
        "pop_min": 66158,
        "pop_other": 0
      },
      "geometry": {
        "type": "Point",
        "coordinates": [
          30.283335538540712,
          37.716660110922817
        ]
      }
    },
    {
      "type": "Feature",
      "properties": {
        "name": "Kırşehir",
        "worldcity": 0.0,
        "megacity": 0,
        "latitude": 39.141999165400001,
        "longitude": 34.171002600800001,
        "pop_max": 94336,
        "pop_min": 94336,
        "pop_other": 0
      },
      "geometry": {
        "type": "Point",
        "coordinates": [
          34.171002600795873,
          39.141999165379048
        ]
      }
    },
    {
      "type": "Feature",
      "properties": {
        "name": "Nevşehir",
        "worldcity": 0.0,
        "megacity": 0,
        "latitude": 38.624004035600002,
        "longitude": 34.723998517299997,
        "pop_max": 75527,
        "pop_min": 75527,
        "pop_other": 0
      },
      "geometry": {
        "type": "Point",
        "coordinates": [
          34.723998517349969,
          38.624004035649307
        ]
      }
    },
    {
      "type": "Feature",
      "properties": {
        "name": "Antioch",
        "worldcity": 0.0,
        "megacity": 0,
        "latitude": 36.233334092900002,
        "longitude": 36.116676558400002,
        "pop_max": 154803,
        "pop_min": 154803,
        "pop_other": 0
      },
      "geometry": {
        "type": "Point",
        "coordinates": [
          36.116676558439394,
          36.233334092927635
        ]
      }
    },
    {
      "type": "Feature",
      "properties": {
        "name": "Giresun",
        "worldcity": 0.0,
        "megacity": 0,
        "latitude": 40.913001149099998,
        "longitude": 38.390004520700003,
        "pop_max": 98864,
        "pop_min": 98864,
        "pop_other": 0
      },
      "geometry": {
        "type": "Point",
        "coordinates": [
          38.390004520672335,
          40.913001149121726
        ]
      }
    },
    {
      "type": "Feature",
      "properties": {
        "name": "Sinop",
        "worldcity": 0.0,
        "megacity": 0,
        "latitude": 42.022998017699997,
        "longitude": 35.153001499699997,
        "pop_max": 34834,
        "pop_min": 34834,
        "pop_other": 0
      },
      "geometry": {
        "type": "Point",
        "coordinates": [
          35.15300149966771,
          42.022998017749671
        ]
      }
    },
    {
      "type": "Feature",
      "properties": {
        "name": "Tokat",
        "worldcity": 0.0,
        "megacity": 0,
        "latitude": 40.3059961652,
        "longitude": 36.563004521499998,
        "pop_max": 129702,
        "pop_min": 129702,
        "pop_other": 0
      },
      "geometry": {
        "type": "Point",
        "coordinates": [
          36.563004521490598,
          40.305996165228464
        ]
      }
    },
    {
      "type": "Feature",
      "properties": {
        "name": "Artvin",
        "worldcity": 0.0,
        "megacity": 0,
        "latitude": 41.183001143299997,
        "longitude": 41.817996535299997,
        "pop_max": 32272,
        "pop_min": 23527,
        "pop_other": 0
      },
      "geometry": {
        "type": "Point",
        "coordinates": [
          41.8179965353429,
          41.183001143294291
        ]
      }
    },
    {
      "type": "Feature",
      "properties": {
        "name": "Bingöl",
        "worldcity": 0.0,
        "megacity": 0,
        "latitude": 38.885004035500003,
        "longitude": 40.498002558000003,
        "pop_max": 80568,
        "pop_min": 80568,
        "pop_other": 0
      },
      "geometry": {
        "type": "Point",
        "coordinates": [
          40.498002558017561,
          38.885004035532518
        ]
      }
    },
    {
      "type": "Feature",
      "properties": {
        "name": "Bitlis",
        "worldcity": 0.0,
        "megacity": 0,
        "latitude": 38.394000118000001,
        "longitude": 42.122997647299997,
        "pop_max": 62811,
        "pop_min": 43109,
        "pop_other": 0
      },
      "geometry": {
        "type": "Point",
        "coordinates": [
          42.122997647307102,
          38.394000118037695
        ]
      }
    },
    {
      "type": "Feature",
      "properties": {
        "name": "Kalangala",
        "worldcity": 0.0,
        "megacity": 0,
        "latitude": -0.3088889,
        "longitude": 32.225,
        "pop_max": 5200,
        "pop_min": 5200,
        "pop_other": 0
      },
      "geometry": {
        "type": "Point",
        "coordinates": [
          32.225000000000136,
          -0.308888899999886
        ]
      }
    },
    {
      "type": "Feature",
      "properties": {
        "name": "Çankırı",
        "worldcity": 0.0,
        "megacity": 0,
        "latitude": 40.607001012300003,
        "longitude": 33.621003593300003,
        "pop_max": 71379,
        "pop_min": 71379,
        "pop_other": 0
      },
      "geometry": {
        "type": "Point",
        "coordinates": [
          33.621003593310206,
          40.607001012306739
        ]
      }
    },
    {
      "type": "Feature",
      "properties": {
        "name": "Niğde",
        "worldcity": 0.0,
        "megacity": 0,
        "latitude": 37.976004115800002,
        "longitude": 34.694001625399999,
        "pop_max": 91039,
        "pop_min": 91039,
        "pop_other": 0
      },
      "geometry": {
        "type": "Point",
        "coordinates": [
          34.694001625412795,
          37.976004115828232
        ]
      }
    },
    {
      "type": "Feature",
      "properties": {
        "name": "Yozgat",
        "worldcity": 0.0,
        "megacity": 0,
        "latitude": 39.817998092899998,
        "longitude": 34.814997485100001,
        "pop_max": 87881,
        "pop_min": 87881,
        "pop_other": 0
      },
      "geometry": {
        "type": "Point",
        "coordinates": [
          34.814997485096853,
          39.817998092919765
        ]
      }
    },
    {
      "type": "Feature",
      "properties": {
        "name": "Gümüşhane",
        "worldcity": 0.0,
        "megacity": 0,
        "latitude": 40.464000128499997,
        "longitude": 39.483999615899997,
        "pop_max": 32250,
        "pop_min": 32250,
        "pop_other": 0
      },
      "geometry": {
        "type": "Point",
        "coordinates": [
          39.48399961590593,
          40.464000128523139
        ]
      }
    },
    {
      "type": "Feature",
      "properties": {
        "name": "Siirt",
        "worldcity": 0.0,
        "megacity": 0,
        "latitude": 37.944000072599998,
        "longitude": 41.932998576899998,
        "pop_max": 114034,
        "pop_min": 114034,
        "pop_other": 0
      },
      "geometry": {
        "type": "Point",
        "coordinates": [
          41.932998576890498,
          37.944000072588665
        ]
      }
    },
    {
      "type": "Feature",
      "properties": {
        "name": "Tunceli",
        "worldcity": 0.0,
        "megacity": 0,
        "latitude": 39.116700023600004,
        "longitude": 39.533301500599997,
        "pop_max": 29062,
        "pop_min": 29062,
        "pop_other": 0
      },
      "geometry": {
        "type": "Point",
        "coordinates": [
          39.533301500558991,
          39.116700023559531
        ]
      }
    },
    {
      "type": "Feature",
      "properties": {
        "name": "Kumi",
        "worldcity": 0.0,
        "megacity": 0,
        "latitude": 1.4608333,
        "longitude": 33.9361111,
        "pop_max": 13000,
        "pop_min": 13000,
        "pop_other": 0
      },
      "geometry": {
        "type": "Point",
        "coordinates": [
          33.9361111,
          1.460833300000104
        ]
      }
    },
    {
      "type": "Feature",
      "properties": {
        "name": "Kaberamaido",
        "worldcity": 0.0,
        "megacity": 0,
        "latitude": 1.7388889,
        "longitude": 33.1594444,
        "pop_max": 3400,
        "pop_min": 3400,
        "pop_other": 0
      },
      "geometry": {
        "type": "Point",
        "coordinates": [
          33.159444399999927,
          1.738888900000063
        ]
      }
    },
    {
      "type": "Feature",
      "properties": {
        "name": "Kayunga",
        "worldcity": 0.0,
        "megacity": 0,
        "latitude": 0.7025,
        "longitude": 32.8886111,
        "pop_max": 21704,
        "pop_min": 21704,
        "pop_other": 0
      },
      "geometry": {
        "type": "Point",
        "coordinates": [
          32.888611100000048,
          0.7025
        ]
      }
    },
    {
      "type": "Feature",
      "properties": {
        "name": "Iganga",
        "worldcity": 0.0,
        "megacity": 0,
        "latitude": 0.6091667,
        "longitude": 33.4686111,
        "pop_max": 45024,
        "pop_min": 45024,
        "pop_other": 0
      },
      "geometry": {
        "type": "Point",
        "coordinates": [
          33.468611100000089,
          0.60916670000006
        ]
      }
    },
    {
      "type": "Feature",
      "properties": {
        "name": "Kamuli",
        "worldcity": 0.0,
        "megacity": 0,
        "latitude": 0.9472222,
        "longitude": 33.1197222,
        "pop_max": 12764,
        "pop_min": 12764,
        "pop_other": 0
      },
      "geometry": {
        "type": "Point",
        "coordinates": [
          33.119722200000126,
          0.947222200000056
        ]
      }
    },
    {
      "type": "Feature",
      "properties": {
        "name": "Pallisa",
        "worldcity": 0.0,
        "megacity": 0,
        "latitude": 1.145,
        "longitude": 33.7094444,
        "pop_max": 30745,
        "pop_min": 30745,
        "pop_other": 0
      },
      "geometry": {
        "type": "Point",
        "coordinates": [
          33.709444400000109,
          1.145
        ]
      }
    },
    {
      "type": "Feature",
      "properties": {
        "name": "Mpigi",
        "worldcity": 0.0,
        "megacity": 0,
        "latitude": 0.225,
        "longitude": 32.3136111,
        "pop_max": 11082,
        "pop_min": 11082,
        "pop_other": 0
      },
      "geometry": {
        "type": "Point",
        "coordinates": [
          32.313611100000116,
          0.225000000000136
        ]
      }
    },
    {
      "type": "Feature",
      "properties": {
        "name": "Adjumani",
        "worldcity": 0.0,
        "megacity": 0,
        "latitude": 3.3613889,
        "longitude": 31.8097222,
        "pop_max": 34700,
        "pop_min": 34700,
        "pop_other": 0
      },
      "geometry": {
        "type": "Point",
        "coordinates": [
          31.809722199999953,
          3.361388900000065
        ]
      }
    },
    {
      "type": "Feature",
      "properties": {
        "name": "Nebbi",
        "worldcity": 0.0,
        "megacity": 0,
        "latitude": 2.4758333,
        "longitude": 31.1025,
        "pop_max": 30354,
        "pop_min": 30354,
        "pop_other": 0
      },
      "geometry": {
        "type": "Point",
        "coordinates": [
          31.1025,
          2.475833300000033
        ]
      }
    },
    {
      "type": "Feature",
      "properties": {
        "name": "Kiboga",
        "worldcity": 0.0,
        "megacity": 0,
        "latitude": 0.9161111,
        "longitude": 31.7741667,
        "pop_max": 14512,
        "pop_min": 14512,
        "pop_other": 0
      },
      "geometry": {
        "type": "Point",
        "coordinates": [
          31.77416670000008,
          0.916111100000023
        ]
      }
    },
    {
      "type": "Feature",
      "properties": {
        "name": "Nakasongola",
        "worldcity": 0.0,
        "megacity": 0,
        "latitude": 1.3088889,
        "longitude": 32.4563889,
        "pop_max": 6921,
        "pop_min": 6921,
        "pop_other": 0
      },
      "geometry": {
        "type": "Point",
        "coordinates": [
          32.456388899999922,
          1.3088889
        ]
      }
    },
    {
      "type": "Feature",
      "properties": {
        "name": "Bombo",
        "worldcity": 0.0,
        "megacity": 0,
        "latitude": 0.58329910561999998,
        "longitude": 32.533299524900002,
        "pop_max": 75000,
        "pop_min": 21000,
        "pop_other": 0
      },
      "geometry": {
        "type": "Point",
        "coordinates": [
          32.533299524864844,
          0.583299105614628
        ]
      }
    },
    {
      "type": "Feature",
      "properties": {
        "name": "Masindi",
        "worldcity": 0.0,
        "megacity": 0,
        "latitude": 1.6744444,
        "longitude": 31.715,
        "pop_max": 31486,
        "pop_min": 31486,
        "pop_other": 0
      },
      "geometry": {
        "type": "Point",
        "coordinates": [
          31.715,
          1.674444400000141
        ]
      }
    },
    {
      "type": "Feature",
      "properties": {
        "name": "Fort Portal",
        "worldcity": 0.0,
        "megacity": 0,
        "latitude": 0.67100412112999996,
        "longitude": 30.275001616000001,
        "pop_max": 42670,
        "pop_min": 42670,
        "pop_other": 0
      },
      "geometry": {
        "type": "Point",
        "coordinates": [
          30.27500161597942,
          0.671004121125236
        ]
      }
    },
    {
      "type": "Feature",
      "properties": {
        "name": "Kibale",
        "worldcity": 0.0,
        "megacity": 0,
        "latitude": 0.8,
        "longitude": 31.0666667,
        "pop_max": 5200,
        "pop_min": 5200,
        "pop_other": 0
      },
      "geometry": {
        "type": "Point",
        "coordinates": [
          31.066666700000042,
          0.8
        ]
      }
    },
    {
      "type": "Feature",
      "properties": {
        "name": "Sironko",
        "worldcity": 0.0,
        "megacity": 0,
        "latitude": 1.25,
        "longitude": 34.3,
        "pop_max": 14100,
        "pop_min": 14100,
        "pop_other": 0
      },
      "geometry": {
        "type": "Point",
        "coordinates": [
          34.300000000000125,
          1.25
        ]
      }
    },
    {
      "type": "Feature",
      "properties": {
        "name": "Busia",
        "worldcity": 0.0,
        "megacity": 0,
        "latitude": 0.4544444,
        "longitude": 34.0758333,
        "pop_max": 47100,
        "pop_min": 47100,
        "pop_other": 0
      },
      "geometry": {
        "type": "Point",
        "coordinates": [
          34.075833300000113,
          0.454444399999943
        ]
      }
    },
    {
      "type": "Feature",
      "properties": {
        "name": "Katakwi",
        "worldcity": 0.0,
        "megacity": 0,
        "latitude": 1.8911111,
        "longitude": 33.9661111,
        "pop_max": 8400,
        "pop_min": 8400,
        "pop_other": 0
      },
      "geometry": {
        "type": "Point",
        "coordinates": [
          33.966111100000091,
          1.891111100000046
        ]
      }
    },
    {
      "type": "Feature",
      "properties": {
        "name": "Veszprém",
        "worldcity": 0.0,
        "megacity": 0,
        "latitude": 47.0909971373,
        "longitude": 17.910999568499999,
        "pop_max": 62023,
        "pop_min": 62023,
        "pop_other": 0
      },
      "geometry": {
        "type": "Point",
        "coordinates": [
          17.910999568505588,
          47.09099713733832
        ]
      }
    },
    {
      "type": "Feature",
      "properties": {
        "name": "Zalaegerszeg",
        "worldcity": 0.0,
        "megacity": 0,
        "latitude": 46.844001026599997,
        "longitude": 16.839999586099999,
        "pop_max": 61898,
        "pop_min": 61898,
        "pop_other": 0
      },
      "geometry": {
        "type": "Point",
        "coordinates": [
          16.839999586104341,
          46.844001026631986
        ]
      }
    },
    {
      "type": "Feature",
      "properties": {
        "name": "Tatabánya",
        "worldcity": 0.0,
        "megacity": 0,
        "latitude": 47.549997177100003,
        "longitude": 18.432999568300001,
        "pop_max": 70541,
        "pop_min": 70541,
        "pop_other": 0
      },
      "geometry": {
        "type": "Point",
        "coordinates": [
          18.432999568271782,
          47.549997177077103
        ]
      }
    },
    {
      "type": "Feature",
      "properties": {
        "name": "Szekszárd",
        "worldcity": 0.0,
        "megacity": 0,
        "latitude": 46.343997114799997,
        "longitude": 18.712998581600001,
        "pop_max": 34174,
        "pop_min": 34174,
        "pop_other": 0
      },
      "geometry": {
        "type": "Point",
        "coordinates": [
          18.712998581584827,
          46.343997114847753
        ]
      }
    },
    {
      "type": "Feature",
      "properties": {
        "name": "Salgótarján",
        "worldcity": 0.0,
        "megacity": 0,
        "latitude": 48.1050000794,
        "longitude": 19.8260016264,
        "pop_max": 39640,
        "pop_min": 39640,
        "pop_other": 0
      },
      "geometry": {
        "type": "Point",
        "coordinates": [
          19.826001626366121,
          48.105000079449951
        ]
      }
    },
    {
      "type": "Feature",
      "properties": {
        "name": "Békéscsaba",
        "worldcity": 0.0,
        "megacity": 0,
        "latitude": 46.672002110299999,
        "longitude": 21.1010045684,
        "pop_max": 65206,
        "pop_min": 65206,
        "pop_other": 0
      },
      "geometry": {
        "type": "Point",
        "coordinates": [
          21.101004568360736,
          46.672002110278299
        ]
      }
    },
    {
      "type": "Feature",
      "properties": {
        "name": "Eger",
        "worldcity": 0.0,
        "megacity": 0,
        "latitude": 47.895003136200003,
        "longitude": 20.383002578399999,
        "pop_max": 56647,
        "pop_min": 56647,
        "pop_other": 0
      },
      "geometry": {
        "type": "Point",
        "coordinates": [
          20.383002578440141,
          47.895003136236369
        ]
      }
    },
    {
      "type": "Feature",
      "properties": {
        "name": "Ntungamo",
        "worldcity": 0.0,
        "megacity": 0,
        "latitude": -0.8794444,
        "longitude": 30.2641667,
        "pop_max": 16400,
        "pop_min": 16400,
        "pop_other": 0
      },
      "geometry": {
        "type": "Point",
        "coordinates": [
          30.264166700000089,
          -0.879444400000011
        ]
      }
    },
    {
      "type": "Feature",
      "properties": {
        "name": "Kisoro",
        "worldcity": 0.0,
        "megacity": 0,
        "latitude": -1.3538889,
        "longitude": 29.6983333,
        "pop_max": 12900,
        "pop_min": 12900,
        "pop_other": 0
      },
      "geometry": {
        "type": "Point",
        "coordinates": [
          29.698333300000115,
          -1.353888900000015
        ]
      }
    },
    {
      "type": "Feature",
      "properties": {
        "name": "Gikongoro",
        "worldcity": 0.0,
        "megacity": 0,
        "latitude": -2.4832979447399999,
        "longitude": 29.566701601999998,
        "pop_max": 15000,
        "pop_min": 15000,
        "pop_other": 0
      },
      "geometry": {
        "type": "Point",
        "coordinates": [
          29.566701602030776,
          -2.483297944739661
        ]
      }
    },
    {
      "type": "Feature",
      "properties": {
        "name": "Kibuye",
        "worldcity": 0.0,
        "megacity": 0,
        "latitude": -2.0500019853300002,
        "longitude": 29.349999591900001,
        "pop_max": 48024,
        "pop_min": 48024,
        "pop_other": 0
      },
      "geometry": {
        "type": "Point",
        "coordinates": [
          29.349999591913559,
          -2.050001985334575
        ]
      }
    },
    {
      "type": "Feature",
      "properties": {
        "name": "Kibungo",
        "worldcity": 0.0,
        "megacity": 0,
        "latitude": -2.1666959318100001,
        "longitude": 30.533301584499998,
        "pop_max": 46240,
        "pop_min": 46240,
        "pop_other": 0
      },
      "geometry": {
        "type": "Point",
        "coordinates": [
          30.533301584478863,
          -2.16669593181399
        ]
      }
    },
    {
      "type": "Feature",
      "properties": {
        "name": "Târgu Jiu",
        "worldcity": 0.0,
        "megacity": 0,
        "latitude": 45.045000035199998,
        "longitude": 23.274000615399999,
        "pop_max": 97179,
        "pop_min": 97179,
        "pop_other": 0
      },
      "geometry": {
        "type": "Point",
        "coordinates": [
          23.274000615434716,
          45.045000035170006
        ]
      }
    },
    {
      "type": "Feature",
      "properties": {
        "name": "Slatina",
        "worldcity": 0.0,
        "megacity": 0,
        "latitude": 44.434998142200001,
        "longitude": 24.371001555900001,
        "pop_max": 78988,
        "pop_min": 78988,
        "pop_other": 0
      },
      "geometry": {
        "type": "Point",
        "coordinates": [
          24.371001555854207,
          44.434998142208656
        ]
      }
    },
    {
      "type": "Feature",
      "properties": {
        "name": "Alexandria",
        "worldcity": 0.0,
        "megacity": 0,
        "latitude": 43.901631069899999,
        "longitude": 25.286706542499999,
        "pop_max": 49346,
        "pop_min": 49346,
        "pop_other": 0
      },
      "geometry": {
        "type": "Point",
        "coordinates": [
          25.286706542462184,
          43.90163106989155
        ]
      }
    },
    {
      "type": "Feature",
      "properties": {
        "name": "Târgoviște",
        "worldcity": 0.0,
        "megacity": 0,
        "latitude": 44.937999128500003,
        "longitude": 25.459002502000001,
        "pop_max": 88435,
        "pop_min": 88435,
        "pop_other": 0
      },
      "geometry": {
        "type": "Point",
        "coordinates": [
          25.459002501984173,
          44.937999128544959
        ]
      }
    },
    {
      "type": "Feature",
      "properties": {
        "name": "Giurgiu",
        "worldcity": 0.0,
        "megacity": 0,
        "latitude": 43.9299991062,
        "longitude": 25.839999502200001,
        "pop_max": 69067,
        "pop_min": 69067,
        "pop_other": 0
      },
      "geometry": {
        "type": "Point",
        "coordinates": [
          25.839999502184469,
          43.92999910617101
        ]
      }
    },
    {
      "type": "Feature",
      "properties": {
        "name": "Slobozia",
        "worldcity": 0.0,
        "megacity": 0,
        "latitude": 44.569998056599999,
        "longitude": 27.3819965932,
        "pop_max": 52693,
        "pop_min": 52693,
        "pop_other": 0
      },
      "geometry": {
        "type": "Point",
        "coordinates": [
          27.381996593165866,
          44.569998056553118
        ]
      }
    },
    {
      "type": "Feature",
      "properties": {
        "name": "Dar'a",
        "worldcity": 0.0,
        "megacity": 0,
        "latitude": 32.625000137699999,
        "longitude": 36.105003506599999,
        "pop_max": 146481,
        "pop_min": 97969,
        "pop_other": 0
      },
      "geometry": {
        "type": "Point",
        "coordinates": [
          36.105003506602657,
          32.625000137740756
        ]
      }
    },
    {
      "type": "Feature",
      "properties": {
        "name": "Delémont",
        "worldcity": 0.0,
        "megacity": 0,
        "latitude": 47.369997125799998,
        "longitude": 7.34499948764,
        "pop_max": 11315,
        "pop_min": 11315,
        "pop_other": 0
      },
      "geometry": {
        "type": "Point",
        "coordinates": [
          7.344999487643292,
          47.369997125800808
        ]
      }
    },
    {
      "type": "Feature",
      "properties": {
        "name": "Neuchâtel",
        "worldcity": 0.0,
        "megacity": 0,
        "latitude": 46.998999144700001,
        "longitude": 6.9229986154000001,
        "pop_max": 31270,
        "pop_min": 31270,
        "pop_other": 0
      },
      "geometry": {
        "type": "Point",
        "coordinates": [
          6.922998615397546,
          46.998999144740708
        ]
      }
    },
    {
      "type": "Feature",
      "properties": {
        "name": "Aarau",
        "worldcity": 0.0,
        "megacity": 0,
        "latitude": 47.390004100200002,
        "longitude": 8.0340036104799992,
        "pop_max": 15501,
        "pop_min": 15501,
        "pop_other": 0
      },
      "geometry": {
        "type": "Point",
        "coordinates": [
          8.034003610477498,
          47.390004100198894
        ]
      }
    },
    {
      "type": "Feature",
      "properties": {
        "name": "Stans",
        "worldcity": 0.0,
        "megacity": 0,
        "latitude": 46.9500030739,
        "longitude": 8.3833025467199995,
        "pop_max": 7475,
        "pop_min": 7475,
        "pop_other": 0
      },
      "geometry": {
        "type": "Point",
        "coordinates": [
          8.383302546723826,
          46.950003073890059
        ]
      }
    },
    {
      "type": "Feature",
      "properties": {
        "name": "Sion",
        "worldcity": 0.0,
        "megacity": 0,
        "latitude": 46.239003028600003,
        "longitude": 7.3539994819299999,
        "pop_max": 28045,
        "pop_min": 28045,
        "pop_other": 0
      },
      "geometry": {
        "type": "Point",
        "coordinates": [
          7.353999481933045,
          46.239003028557875
        ]
      }
    },
    {
      "type": "Feature",
      "properties": {
        "name": "Herisau",
        "worldcity": 0.0,
        "megacity": 0,
        "latitude": 47.383299033299998,
        "longitude": 9.2833024721400008,
        "pop_max": 15438,
        "pop_min": 15438,
        "pop_other": 0
      },
      "geometry": {
        "type": "Point",
        "coordinates": [
          9.283302472138416,
          47.383299033295089
        ]
      }
    },
    {
      "type": "Feature",
      "properties": {
        "name": "Saint Gallen",
        "worldcity": 0.0,
        "megacity": 0,
        "latitude": 47.422998066700004,
        "longitude": 9.3619985572399997,
        "pop_max": 70572,
        "pop_min": 70572,
        "pop_other": 0
      },
      "geometry": {
        "type": "Point",
        "coordinates": [
          9.361998557241634,
          47.422998066687967
        ]
      }
    },
    {
      "type": "Feature",
      "properties": {
        "name": "Bellinzona",
        "worldcity": 0.0,
        "megacity": 0,
        "latitude": 46.197000131700001,
        "longitude": 9.0199986087500008,
        "pop_max": 16572,
        "pop_min": 16572,
        "pop_other": 0
      },
      "geometry": {
        "type": "Point",
        "coordinates": [
          9.019998608751848,
          46.197000131661639
        ]
      }
    },
    {
      "type": "Feature",
      "properties": {
        "name": "Glarus",
        "worldcity": 0.0,
        "megacity": 0,
        "latitude": 47.0500020359,
        "longitude": 9.0666995867299995,
        "pop_max": 5681,
        "pop_min": 5681,
        "pop_other": 0
      },
      "geometry": {
        "type": "Point",
        "coordinates": [
          9.066699586732966,
          47.050002035926695
        ]
      }
    },
    {
      "type": "Feature",
      "properties": {
        "name": "Schaffhausen",
        "worldcity": 0.0,
        "megacity": 0,
        "latitude": 47.706003090700001,
        "longitude": 8.6329985233300004,
        "pop_max": 33863,
        "pop_min": 33863,
        "pop_other": 0
      },
      "geometry": {
        "type": "Point",
        "coordinates": [
          8.632998523330116,
          47.706003090670379
        ]
      }
    },
    {
      "type": "Feature",
      "properties": {
        "name": "Schwyz",
        "worldcity": 0.0,
        "megacity": 0,
        "latitude": 47.019996042400003,
        "longitude": 8.6480016028400009,
        "pop_max": 14177,
        "pop_min": 14177,
        "pop_other": 0
      },
      "geometry": {
        "type": "Point",
        "coordinates": [
          8.648001602841134,
          47.0199960423883
        ]
      }
    },
    {
      "type": "Feature",
      "properties": {
        "name": "Frauenfeld",
        "worldcity": 0.0,
        "megacity": 0,
        "latitude": 47.5679971657,
        "longitude": 9.1080005019500003,
        "pop_max": 21979,
        "pop_min": 21979,
        "pop_other": 0
      },
      "geometry": {
        "type": "Point",
        "coordinates": [
          9.108000501947004,
          47.567997165656379
        ]
      }
    },
    {
      "type": "Feature",
      "properties": {
        "name": "Altdorf",
        "worldcity": 0.0,
        "megacity": 0,
        "latitude": 46.879002144399998,
        "longitude": 8.6380025837000005,
        "pop_max": 8678,
        "pop_min": 8678,
        "pop_other": 0
      },
      "geometry": {
        "type": "Point",
        "coordinates": [
          8.638002583700825,
          46.879002144423623
        ]
      }
    },
    {
      "type": "Feature",
      "properties": {
        "name": "Zug",
        "worldcity": 0.0,
        "megacity": 0,
        "latitude": 47.178999030500002,
        "longitude": 8.4870005649899998,
        "pop_max": 23435,
        "pop_min": 23435,
        "pop_other": 0
      },
      "geometry": {
        "type": "Point",
        "coordinates": [
          8.487000564994787,
          47.178999030533475
        ]
      }
    },
    {
      "type": "Feature",
      "properties": {
        "name": "Falun",
        "worldcity": 0.0,
        "megacity": 0,
        "latitude": 60.613002035599997,
        "longitude": 15.6470045537,
        "pop_max": 36477,
        "pop_min": 36477,
        "pop_other": 0
      },
      "geometry": {
        "type": "Point",
        "coordinates": [
          15.647004553684724,
          60.613002035557997
        ]
      }
    },
    {
      "type": "Feature",
      "properties": {
        "name": "Nyköping",
        "worldcity": 0.0,
        "megacity": 0,
        "latitude": 58.7639971778,
        "longitude": 17.015004513099999,
        "pop_max": 27582,
        "pop_min": 27582,
        "pop_other": 0
      },
      "geometry": {
        "type": "Point",
        "coordinates": [
          17.015004513127508,
          58.763997177760473
        ]
      }
    },
    {
      "type": "Feature",
      "properties": {
        "name": "Härnösand",
        "worldcity": 0.0,
        "megacity": 0,
        "latitude": 62.633997039100002,
        "longitude": 17.9340036175,
        "pop_max": 17016,
        "pop_min": 17016,
        "pop_other": 0
      },
      "geometry": {
        "type": "Point",
        "coordinates": [
          17.934003617455744,
          62.633997039075155
        ]
      }
    },
    {
      "type": "Feature",
      "properties": {
        "name": "Karlskrona",
        "worldcity": 0.0,
        "megacity": 0,
        "latitude": 56.203002185899997,
        "longitude": 15.296004610900001,
        "pop_max": 35212,
        "pop_min": 35212,
        "pop_other": 0
      },
      "geometry": {
        "type": "Point",
        "coordinates": [
          15.296004610905186,
          56.203002185897958
        ]
      }
    },
    {
      "type": "Feature",
      "properties": {
        "name": "Alba Lulia",
        "worldcity": 0.0,
        "megacity": 0,
        "latitude": 46.077003131300003,
        "longitude": 23.580000586800001,
        "pop_max": 66085,
        "pop_min": 66085,
        "pop_other": 0
      },
      "geometry": {
        "type": "Point",
        "coordinates": [
          23.580000586766062,
          46.077003131344384
        ]
      }
    },
    {
      "type": "Feature",
      "properties": {
        "name": "Bistrița",
        "worldcity": 0.0,
        "megacity": 0,
        "latitude": 47.138004094599999,
        "longitude": 24.513003580300001,
        "pop_max": 81318,
        "pop_min": 81318,
        "pop_other": 0
      },
      "geometry": {
        "type": "Point",
        "coordinates": [
          24.51300358027089,
          47.138004094605435
        ]
      }
    },
    {
      "type": "Feature",
      "properties": {
        "name": "Deva",
        "worldcity": 0.0,
        "megacity": 0,
        "latitude": 45.883323042400001,
        "longitude": 22.9166735704,
        "pop_max": 67802,
        "pop_min": 67802,
        "pop_other": 0
      },
      "geometry": {
        "type": "Point",
        "coordinates": [
          22.916673570429055,
          45.883323042412371
        ]
      }
    },
    {
      "type": "Feature",
      "properties": {
        "name": "Zalău",
        "worldcity": 0.0,
        "megacity": 0,
        "latitude": 47.175003096600001,
        "longitude": 23.063004481899998,
        "pop_max": 63232,
        "pop_min": 63232,
        "pop_other": 0
      },
      "geometry": {
        "type": "Point",
        "coordinates": [
          23.063004481886935,
          47.17500309661466
        ]
      }
    },
    {
      "type": "Feature",
      "properties": {
        "name": "Satu Mare",
        "worldcity": 0.0,
        "megacity": 0,
        "latitude": 47.791998163499997,
        "longitude": 22.885002480299999,
        "pop_max": 112490,
        "pop_min": 112490,
        "pop_other": 0
      },
      "geometry": {
        "type": "Point",
        "coordinates": [
          22.885002480311812,
          47.791998163530366
        ]
      }
    },
    {
      "type": "Feature",
      "properties": {
        "name": "Rimnicu Vilcea",
        "worldcity": 0.0,
        "megacity": 0,
        "latitude": 45.109998044900003,
        "longitude": 24.382998624700001,
        "pop_max": 107558,
        "pop_min": 107558,
        "pop_other": 0
      },
      "geometry": {
        "type": "Point",
        "coordinates": [
          24.382998624695688,
          45.109998044898646
        ]
      }
    },
    {
      "type": "Feature",
      "properties": {
        "name": "Sfintu-Gheorghe",
        "worldcity": 0.0,
        "megacity": 0,
        "latitude": 45.867996111399997,
        "longitude": 25.793001481000001,
        "pop_max": 60677,
        "pop_min": 60677,
        "pop_other": 0
      },
      "geometry": {
        "type": "Point",
        "coordinates": [
          25.793001481034935,
          45.867996111380307
        ]
      }
    },
    {
      "type": "Feature",
      "properties": {
        "name": "Miercurea Cuic",
        "worldcity": 0.0,
        "megacity": 0,
        "latitude": 46.360998078599998,
        "longitude": 25.524000511699999,
        "pop_max": 42029,
        "pop_min": 37980,
        "pop_other": 0
      },
      "geometry": {
        "type": "Point",
        "coordinates": [
          25.524000511712984,
          46.360998078576301
        ]
      }
    },
    {
      "type": "Feature",
      "properties": {
        "name": "Piatra-Neamt",
        "worldcity": 0.0,
        "megacity": 0,
        "latitude": 46.940004054699997,
        "longitude": 26.382996565100001,
        "pop_max": 102688,
        "pop_min": 102688,
        "pop_other": 0
      },
      "geometry": {
        "type": "Point",
        "coordinates": [
          26.382996565081839,
          46.94000405474975
        ]
      }
    },
    {
      "type": "Feature",
      "properties": {
        "name": "Brăila",
        "worldcity": 0.0,
        "megacity": 0,
        "latitude": 45.291996145900001,
        "longitude": 27.969003538799999,
        "pop_max": 213569,
        "pop_min": 213569,
        "pop_other": 0
      },
      "geometry": {
        "type": "Point",
        "coordinates": [
          27.969003538778509,
          45.291996145876226
        ]
      }
    },
    {
      "type": "Feature",
      "properties": {
        "name": "Vaslui",
        "worldcity": 0.0,
        "megacity": 0,
        "latitude": 46.633329075600003,
        "longitude": 27.733338590700001,
        "pop_max": 69225,
        "pop_min": 69225,
        "pop_other": 0
      },
      "geometry": {
        "type": "Point",
        "coordinates": [
          27.73333859066895,
          46.633329075572703
        ]
      }
    },
    {
      "type": "Feature",
      "properties": {
        "name": "Salyan",
        "worldcity": 0.0,
        "megacity": 0,
        "latitude": 28.350000036899999,
        "longitude": 82.183302553600001,
        "pop_max": 15000,
        "pop_min": 15000,
        "pop_other": 0
      },
      "geometry": {
        "type": "Point",
        "coordinates": [
          82.183302553611782,
          28.350000036941594
        ]
      }
    },
    {
      "type": "Feature",
      "properties": {
        "name": "Mae Hong Son",
        "worldcity": 0.0,
        "megacity": 0,
        "latitude": 19.30100405,
        "longitude": 97.968996652900003,
        "pop_max": 9109,
        "pop_min": 9109,
        "pop_other": 0
      },
      "geometry": {
        "type": "Point",
        "coordinates": [
          97.968996652850137,
          19.301004050010818
        ]
      }
    },
    {
      "type": "Feature",
      "properties": {
        "name": "Phangnga",
        "worldcity": 0.0,
        "megacity": 0,
        "latitude": 8.4510000858000005,
        "longitude": 98.533998574400002,
        "pop_max": 9676,
        "pop_min": 9676,
        "pop_other": 0
      },
      "geometry": {
        "type": "Point",
        "coordinates": [
          98.533998574363125,
          8.451000085799024
        ]
      }
    },
    {
      "type": "Feature",
      "properties": {
        "name": "Ranong",
        "worldcity": 0.0,
        "megacity": 0,
        "latitude": 9.9620010945100006,
        "longitude": 98.638002571900003,
        "pop_max": 24561,
        "pop_min": 24561,
        "pop_other": 0
      },
      "geometry": {
        "type": "Point",
        "coordinates": [
          98.638002571920083,
          9.962001094509105
        ]
      }
    },
    {
      "type": "Feature",
      "properties": {
        "name": "Krabi",
        "worldcity": 0.0,
        "megacity": 0,
        "latitude": 8.0520030970200001,
        "longitude": 98.911998665499993,
        "pop_max": 31219,
        "pop_min": 31219,
        "pop_other": 0
      },
      "geometry": {
        "type": "Point",
        "coordinates": [
          98.911998665495105,
          8.052003097019451
        ]
      }
    },
    {
      "type": "Feature",
      "properties": {
        "name": "Phatthalung",
        "worldcity": 0.0,
        "megacity": 0,
        "latitude": 7.6149989797800002,
        "longitude": 100.08099956,
        "pop_max": 43522,
        "pop_min": 43522,
        "pop_other": 0
      },
      "geometry": {
        "type": "Point",
        "coordinates": [
          100.080999560231817,
          7.614998979778875
        ]
      }
    },
    {
      "type": "Feature",
      "properties": {
        "name": "Satun",
        "worldcity": 0.0,
        "megacity": 0,
        "latitude": 6.6167010988600001,
        "longitude": 100.066698628,
        "pop_max": 34544,
        "pop_min": 34544,
        "pop_other": 0
      },
      "geometry": {
        "type": "Point",
        "coordinates": [
          100.066698627886808,
          6.616701098860688
        ]
      }
    },
    {
      "type": "Feature",
      "properties": {
        "name": "Lamphun",
        "worldcity": 0.0,
        "megacity": 0,
        "latitude": 18.5030011363,
        "longitude": 99.073998562699998,
        "pop_max": 14030,
        "pop_min": 14030,
        "pop_other": 0
      },
      "geometry": {
        "type": "Point",
        "coordinates": [
          99.073998562708653,
          18.503001136334092
        ]
      }
    },
    {
      "type": "Feature",
      "properties": {
        "name": "Kamphaeng Phet",
        "worldcity": 0.0,
        "megacity": 0,
        "latitude": 16.472997036900001,
        "longitude": 99.529002668499999,
        "pop_max": 58787,
        "pop_min": 58787,
        "pop_other": 0
      },
      "geometry": {
        "type": "Point",
        "coordinates": [
          99.529002668528506,
          16.472997036926074
        ]
      }
    },
    {
      "type": "Feature",
      "properties": {
        "name": "Phichit",
        "worldcity": 0.0,
        "megacity": 0,
        "latitude": 16.439004045600001,
        "longitude": 100.34900167000001,
        "pop_max": 35760,
        "pop_min": 35760,
        "pop_other": 0
      },
      "geometry": {
        "type": "Point",
        "coordinates": [
          100.349001670187022,
          16.439004045586273
        ]
      }
    },
    {
      "type": "Feature",
      "properties": {
        "name": "Phetchabun",
        "worldcity": 0.0,
        "megacity": 0,
        "latitude": 16.4189970712,
        "longitude": 101.159001653,
        "pop_max": 50656,
        "pop_min": 50656,
        "pop_other": 0
      },
      "geometry": {
        "type": "Point",
        "coordinates": [
          101.159001652705115,
          16.418997071188187
        ]
      }
    },
    {
      "type": "Feature",
      "properties": {
        "name": "Supham Buri",
        "worldcity": 0.0,
        "megacity": 0,
        "latitude": 14.4710010468,
        "longitude": 100.128996606,
        "pop_max": 53399,
        "pop_min": 53399,
        "pop_other": 0
      },
      "geometry": {
        "type": "Point",
        "coordinates": [
          100.128996606231908,
          14.471001046838808
        ]
      }
    },
    {
      "type": "Feature",
      "properties": {
        "name": "Ang Thong",
        "worldcity": 0.0,
        "megacity": 0,
        "latitude": 14.583303057,
        "longitude": 100.44999965700001,
        "pop_max": 13738,
        "pop_min": 13738,
        "pop_other": 0
      },
      "geometry": {
        "type": "Point",
        "coordinates": [
          100.449999657074272,
          14.583303057002922
        ]
      }
    },
    {
      "type": "Feature",
      "properties": {
        "name": "Chainat",
        "worldcity": 0.0,
        "megacity": 0,
        "latitude": 15.179004017600001,
        "longitude": 100.125999697,
        "pop_max": 15469,
        "pop_min": 15469,
        "pop_other": 0
      },
      "geometry": {
        "type": "Point",
        "coordinates": [
          100.12599969716382,
          15.179004017619036
        ]
      }
    },
    {
      "type": "Feature",
      "properties": {
        "name": "Nakhon Nayok",
        "worldcity": 0.0,
        "megacity": 0,
        "latitude": 14.2000020278,
        "longitude": 101.215998693,
        "pop_max": 21309,
        "pop_min": 21309,
        "pop_other": 0
      },
      "geometry": {
        "type": "Point",
        "coordinates": [
          101.215998692994901,
          14.200002027815458
        ]
      }
    },
    {
      "type": "Feature",
      "properties": {
        "name": "Sing Buri",
        "worldcity": 0.0,
        "megacity": 0,
        "latitude": 14.886998999299999,
        "longitude": 100.401003586,
        "pop_max": 20046,
        "pop_min": 20046,
        "pop_other": 0
      },
      "geometry": {
        "type": "Point",
        "coordinates": [
          100.401003586223624,
          14.886998999346929
        ]
      }
    },
    {
      "type": "Feature",
      "properties": {
        "name": "Nakhon Pathom",
        "worldcity": 0.0,
        "megacity": 0,
        "latitude": 13.8179970666,
        "longitude": 100.06399859699999,
        "pop_max": 117927,
        "pop_min": 117927,
        "pop_other": 0
      },
      "geometry": {
        "type": "Point",
        "coordinates": [
          100.063998596503268,
          13.817997066647024
        ]
      }
    },
    {
      "type": "Feature",
      "properties": {
        "name": "Prachuap Khiri Khan",
        "worldcity": 0.0,
        "megacity": 0,
        "latitude": 11.802996046800001,
        "longitude": 99.800001687600002,
        "pop_max": 33521,
        "pop_min": 33521,
        "pop_other": 0
      },
      "geometry": {
        "type": "Point",
        "coordinates": [
          99.800001687552026,
          11.802996046750025
        ]
      }
    },
    {
      "type": "Feature",
      "properties": {
        "name": "Samut Sakhon",
        "worldcity": 0.0,
        "megacity": 0,
        "latitude": 13.5360000036,
        "longitude": 100.274004641,
        "pop_max": 63498,
        "pop_min": 63498,
        "pop_other": 0
      },
      "geometry": {
        "type": "Point",
        "coordinates": [
          100.274004641318129,
          13.536000003632807
        ]
      }
    },
    {
      "type": "Feature",
      "properties": {
        "name": "Samut Songkhram",
        "worldcity": 0.0,
        "megacity": 0,
        "latitude": 13.4129969926,
        "longitude": 100.00099863600001,
        "pop_max": 35065,
        "pop_min": 35065,
        "pop_other": 0
      },
      "geometry": {
        "type": "Point",
        "coordinates": [
          100.000998636475856,
          13.412996992646015
        ]
      }
    },
    {
      "type": "Feature",
      "properties": {
        "name": "Yasothon",
        "worldcity": 0.0,
        "megacity": 0,
        "latitude": 15.787998115100001,
        "longitude": 104.15099767700001,
        "pop_max": 21643,
        "pop_min": 21643,
        "pop_other": 0
      },
      "geometry": {
        "type": "Point",
        "coordinates": [
          104.150997676587053,
          15.787998115095832
        ]
      }
    },
    {
      "type": "Feature",
      "properties": {
        "name": "Chachoengsao",
        "worldcity": 0.0,
        "megacity": 0,
        "latitude": 13.6790010529,
        "longitude": 101.076003654,
        "pop_max": 49741,
        "pop_min": 49741,
        "pop_other": 0
      },
      "geometry": {
        "type": "Point",
        "coordinates": [
          101.076003654397198,
          13.679001052899878
        ]
      }
    },
    {
      "type": "Feature",
      "properties": {
        "name": "Trat",
        "worldcity": 0.0,
        "megacity": 0,
        "latitude": 12.2370030894,
        "longitude": 102.50900162400001,
        "pop_max": 21590,
        "pop_min": 21590,
        "pop_other": 0
      },
      "geometry": {
        "type": "Point",
        "coordinates": [
          102.509001623568793,
          12.237003089438701
        ]
      }
    },
    {
      "type": "Feature",
      "properties": {
        "name": "Kalasin",
        "worldcity": 0.0,
        "megacity": 0,
        "latitude": 16.427997065500001,
        "longitude": 103.509000677,
        "pop_max": 55102,
        "pop_min": 55102,
        "pop_other": 0
      },
      "geometry": {
        "type": "Point",
        "coordinates": [
          103.509000676503774,
          16.427997065477939
        ]
      }
    },
    {
      "type": "Feature",
      "properties": {
        "name": "Maha Sarakham",
        "worldcity": 0.0,
        "megacity": 0,
        "latitude": 16.1839980293,
        "longitude": 103.298004543,
        "pop_max": 51584,
        "pop_min": 51584,
        "pop_other": 0
      },
      "geometry": {
        "type": "Point",
        "coordinates": [
          103.298004542955823,
          16.183998029323504
        ]
      }
    },
    {
      "type": "Feature",
      "properties": {
        "name": "Roi Et",
        "worldcity": 0.0,
        "megacity": 0,
        "latitude": 16.050995999200001,
        "longitude": 103.654998635,
        "pop_max": 39328,
        "pop_min": 39328,
        "pop_other": 0
      },
      "geometry": {
        "type": "Point",
        "coordinates": [
          103.65499863483916,
          16.050995999196516
        ]
      }
    },
    {
      "type": "Feature",
      "properties": {
        "name": "Pattani",
        "worldcity": 0.0,
        "megacity": 0,
        "latitude": 6.8640030233699996,
        "longitude": 101.25000062,
        "pop_max": 150000,
        "pop_min": 43631,
        "pop_other": 0
      },
      "geometry": {
        "type": "Point",
        "coordinates": [
          101.25000062045217,
          6.864003023369264
        ]
      }
    },
    {
      "type": "Feature",
      "properties": {
        "name": "Piggs Peak",
        "worldcity": 0.0,
        "megacity": 0,
        "latitude": -25.9610039877,
        "longitude": 31.247001495700001,
        "pop_max": 5750,
        "pop_min": 5750,
        "pop_other": 0
      },
      "geometry": {
        "type": "Point",
        "coordinates": [
          31.247001495710947,
          -25.961003987691868
        ]
      }
    },
    {
      "type": "Feature",
      "properties": {
        "name": "Siteki",
        "worldcity": 0.0,
        "megacity": 0,
        "latitude": -26.454996043600001,
        "longitude": 31.9519986213,
        "pop_max": 6152,
        "pop_min": 6152,
        "pop_other": 0
      },
      "geometry": {
        "type": "Point",
        "coordinates": [
          31.951998621305506,
          -26.454996043620838
        ]
      }
    },
    {
      "type": "Feature",
      "properties": {
        "name": "Manzini",
        "worldcity": 0.0,
        "megacity": 0,
        "latitude": -26.495001056300001,
        "longitude": 31.388004495299999,
        "pop_max": 110537,
        "pop_min": 110537,
        "pop_other": 0
      },
      "geometry": {
        "type": "Point",
        "coordinates": [
          31.388004495277073,
          -26.495001056299657
        ]
      }
    },
    {
      "type": "Feature",
      "properties": {
        "name": "Hlatikulu",
        "worldcity": 0.0,
        "megacity": 0,
        "latitude": -26.999999926899999,
        "longitude": 31.416696548600001,
        "pop_max": 2748,
        "pop_min": 2748,
        "pop_other": 0
      },
      "geometry": {
        "type": "Point",
        "coordinates": [
          31.416696548561276,
          -26.999999926853548
        ]
      }
    },
    {
      "type": "Feature",
      "properties": {
        "name": "Somoto",
        "worldcity": 0.0,
        "megacity": 0,
        "latitude": 13.4759971182,
        "longitude": -86.582996592499995,
        "pop_max": 20316,
        "pop_min": 20316,
        "pop_other": 0
      },
      "geometry": {
        "type": "Point",
        "coordinates": [
          -86.582996592514291,
          13.475997118157238
        ]
      }
    },
    {
      "type": "Feature",
      "properties": {
        "name": "Ocotal",
        "worldcity": 0.0,
        "megacity": 0,
        "latitude": 13.6299960459,
        "longitude": -86.4729986113,
        "pop_max": 33928,
        "pop_min": 33928,
        "pop_other": 0
      },
      "geometry": {
        "type": "Point",
        "coordinates": [
          -86.472998611337346,
          13.629996045931591
        ]
      }
    },
    {
      "type": "Feature",
      "properties": {
        "name": "Aveiro",
        "worldcity": 0.0,
        "megacity": 0,
        "latitude": 40.641003105199999,
        "longitude": -8.6509975340899992,
        "pop_max": 54162,
        "pop_min": 54162,
        "pop_other": 0
      },
      "geometry": {
        "type": "Point",
        "coordinates": [
          -8.650997534094358,
          40.641003105247648
        ]
      }
    },
    {
      "type": "Feature",
      "properties": {
        "name": "Leiria",
        "worldcity": 0.0,
        "megacity": 0,
        "latitude": 39.738996028499997,
        "longitude": -8.8049964618699992,
        "pop_max": 45112,
        "pop_min": 45112,
        "pop_other": 0
      },
      "geometry": {
        "type": "Point",
        "coordinates": [
          -8.804996461868768,
          39.738996028530494
        ]
      }
    },
    {
      "type": "Feature",
      "properties": {
        "name": "Viana Do Castelo",
        "worldcity": 0.0,
        "megacity": 0,
        "latitude": 41.696235142699997,
        "longitude": -8.8441374843599991,
        "pop_max": 15555,
        "pop_min": 15555,
        "pop_other": 0
      },
      "geometry": {
        "type": "Point",
        "coordinates": [
          -8.844137484362761,
          41.696235142665046
        ]
      }
    },
    {
      "type": "Feature",
      "properties": {
        "name": "Mérida",
        "worldcity": 0.0,
        "megacity": 0,
        "latitude": 38.912004018399998,
        "longitude": -6.3379975123100003,
        "pop_max": 52423,
        "pop_min": 52423,
        "pop_other": 0
      },
      "geometry": {
        "type": "Point",
        "coordinates": [
          -6.337997512305094,
          38.912004018401376
        ]
      }
    },
    {
      "type": "Feature",
      "properties": {
        "name": "Beja",
        "worldcity": 0.0,
        "megacity": 0,
        "latitude": 38.014002142700001,
        "longitude": -7.86300241019,
        "pop_max": 35854,
        "pop_min": 21658,
        "pop_other": 0
      },
      "geometry": {
        "type": "Point",
        "coordinates": [
          -7.863002410191882,
          38.014002142688014
        ]
      }
    },
    {
      "type": "Feature",
      "properties": {
        "name": "Évora",
        "worldcity": 0.0,
        "megacity": 0,
        "latitude": 38.559996114699999,
        "longitude": -7.9059955613000001,
        "pop_max": 55620,
        "pop_min": 55620,
        "pop_other": 0
      },
      "geometry": {
        "type": "Point",
        "coordinates": [
          -7.905995561304906,
          38.5599961146537
        ]
      }
    },
    {
      "type": "Feature",
      "properties": {
        "name": "Portalegre",
        "worldcity": 0.0,
        "megacity": 0,
        "latitude": 39.290004109500003,
        "longitude": -7.4230015493700003,
        "pop_max": 15581,
        "pop_min": 15581,
        "pop_other": 0
      },
      "geometry": {
        "type": "Point",
        "coordinates": [
          -7.423001549366745,
          39.290004109533356
        ]
      }
    },
    {
      "type": "Feature",
      "properties": {
        "name": "Santarém",
        "worldcity": 0.0,
        "megacity": 0,
        "latitude": 39.231000083399998,
        "longitude": -8.6820025524800002,
        "pop_max": 29385,
        "pop_min": 29385,
        "pop_other": 0
      },
      "geometry": {
        "type": "Point",
        "coordinates": [
          -8.682002552483425,
          39.23100008342476
        ]
      }
    },
    {
      "type": "Feature",
      "properties": {
        "name": "Bragança",
        "worldcity": 0.0,
        "megacity": 0,
        "latitude": 41.807997014199998,
        "longitude": -6.75500342578,
        "pop_max": 34375,
        "pop_min": 34375,
        "pop_other": 0
      },
      "geometry": {
        "type": "Point",
        "coordinates": [
          -6.755003425781467,
          41.80799701416538
        ]
      }
    },
    {
      "type": "Feature",
      "properties": {
        "name": "Castelo Branco",
        "worldcity": 0.0,
        "megacity": 0,
        "latitude": 39.810996148299999,
        "longitude": -7.4879995591000004,
        "pop_max": 33479,
        "pop_min": 33479,
        "pop_other": 0
      },
      "geometry": {
        "type": "Point",
        "coordinates": [
          -7.487999559095442,
          39.810996148331355
        ]
      }
    },
    {
      "type": "Feature",
      "properties": {
        "name": "Guarda",
        "worldcity": 0.0,
        "megacity": 0,
        "latitude": 40.541004143199999,
        "longitude": -7.2620005115200001,
        "pop_max": 32111,
        "pop_min": 32111,
        "pop_other": 0
      },
      "geometry": {
        "type": "Point",
        "coordinates": [
          -7.262000511520284,
          40.541004143211012
        ]
      }
    },
    {
      "type": "Feature",
      "properties": {
        "name": "Viseu",
        "worldcity": 0.0,
        "megacity": 0,
        "latitude": 40.656996108000001,
        "longitude": -7.9100004313400003,
        "pop_max": 26364,
        "pop_min": 26364,
        "pop_other": 0
      },
      "geometry": {
        "type": "Point",
        "coordinates": [
          -7.910000431341302,
          40.656996108008002
        ]
      }
    },
    {
      "type": "Feature",
      "properties": {
        "name": "Vila Real",
        "worldcity": 0.0,
        "megacity": 0,
        "latitude": 41.293998149300002,
        "longitude": -7.7370024901400001,
        "pop_max": 17001,
        "pop_min": 17001,
        "pop_other": 0
      },
      "geometry": {
        "type": "Point",
        "coordinates": [
          -7.737002490137002,
          41.293998149321794
        ]
      }
    },
    {
      "type": "Feature",
      "properties": {
        "name": "Fatick",
        "worldcity": 0.0,
        "megacity": 0,
        "latitude": 14.344002101899999,
        "longitude": -16.415999520900002,
        "pop_max": 24243,
        "pop_min": 24243,
        "pop_other": 0
      },
      "geometry": {
        "type": "Point",
        "coordinates": [
          -16.415999520858463,
          14.344002101933313
        ]
      }
    },
    {
      "type": "Feature",
      "properties": {
        "name": "An Nabk",
        "worldcity": 0.0,
        "megacity": 0,
        "latitude": 31.3333020458,
        "longitude": 37.333296534500001,
        "pop_max": 10000,
        "pop_min": 5000,
        "pop_other": 0
      },
      "geometry": {
        "type": "Point",
        "coordinates": [
          37.333296534498515,
          31.333302045819607
        ]
      }
    },
    {
      "type": "Feature",
      "properties": {
        "name": "Assen",
        "worldcity": 0.0,
        "megacity": 0,
        "latitude": 53.000001092399998,
        "longitude": 6.5500025846399996,
        "pop_max": 62237,
        "pop_min": 62237,
        "pop_other": 0
      },
      "geometry": {
        "type": "Point",
        "coordinates": [
          6.550002584636275,
          53.000001092350601
        ]
      }
    },
    {
      "type": "Feature",
      "properties": {
        "name": "Arnhem",
        "worldcity": 0.0,
        "megacity": 0,
        "latitude": 51.9879960345,
        "longitude": 5.9229995624600003,
        "pop_max": 141674,
        "pop_min": 141674,
        "pop_other": 0
      },
      "geometry": {
        "type": "Point",
        "coordinates": [
          5.922999562462564,
          51.987996034456728
        ]
      }
    },
    {
      "type": "Feature",
      "properties": {
        "name": "Maastricht",
        "worldcity": 0.0,
        "megacity": 0,
        "latitude": 50.8529970672,
        "longitude": 5.6770024766100002,
        "pop_max": 122378,
        "pop_min": 122378,
        "pop_other": 0
      },
      "geometry": {
        "type": "Point",
        "coordinates": [
          5.677002476606958,
          50.852997067177284
        ]
      }
    },
    {
      "type": "Feature",
      "properties": {
        "name": "Zwolle",
        "worldcity": 0.0,
        "megacity": 0,
        "latitude": 52.524000088900003,
        "longitude": 6.0969965285200001,
        "pop_max": 111805,
        "pop_min": 111805,
        "pop_other": 0
      },
      "geometry": {
        "type": "Point",
        "coordinates": [
          6.096996528517536,
          52.524000088883326
        ]
      }
    },
    {
      "type": "Feature",
      "properties": {
        "name": "Middelburg",
        "worldcity": 0.0,
        "megacity": 0,
        "latitude": 51.501996177300001,
        "longitude": 3.6099995406700001,
        "pop_max": 46485,
        "pop_min": 46485,
        "pop_other": 0
      },
      "geometry": {
        "type": "Point",
        "coordinates": [
          3.609999540673243,
          51.501996177332728
        ]
      }
    },
    {
      "type": "Feature",
      "properties": {
        "name": "'s-Hertogenbosch",
        "worldcity": 0.0,
        "megacity": 0,
        "latitude": 51.683337142699997,
        "longitude": 5.3166604848099999,
        "pop_max": 134520,
        "pop_min": 134520,
        "pop_other": 0
      },
      "geometry": {
        "type": "Point",
        "coordinates": [
          5.316660484814179,
          51.683337142699713
        ]
      }
    },
    {
      "type": "Feature",
      "properties": {
        "name": "Arendal",
        "worldcity": 0.0,
        "megacity": 0,
        "latitude": 58.464756055499997,
        "longitude": 8.7660005534599996,
        "pop_max": 30916,
        "pop_min": 30916,
        "pop_other": 0
      },
      "geometry": {
        "type": "Point",
        "coordinates": [
          8.766000553457104,
          58.464756055522116
        ]
      }
    },
    {
      "type": "Feature",
      "properties": {
        "name": "Vossavangen",
        "worldcity": 0.0,
        "megacity": 0,
        "latitude": 60.630003164800002,
        "longitude": 6.4410034628300004,
        "pop_max": 5571,
        "pop_min": 5571,
        "pop_other": 0
      },
      "geometry": {
        "type": "Point",
        "coordinates": [
          6.441003462826245,
          60.63000316477013
        ]
      }
    },
    {
      "type": "Feature",
      "properties": {
        "name": "Leikanger",
        "worldcity": 0.0,
        "megacity": 0,
        "latitude": 61.183296124500004,
        "longitude": 6.8499994707500003,
        "pop_max": 1965,
        "pop_min": 1965,
        "pop_other": 0
      },
      "geometry": {
        "type": "Point",
        "coordinates": [
          6.849999470745956,
          61.183296124492415
        ]
      }
    },
    {
      "type": "Feature",
      "properties": {
        "name": "Bærum",
        "worldcity": 0.0,
        "megacity": 0,
        "latitude": 59.913486059699999,
        "longitude": 11.3472365136,
        "pop_max": 113659,
        "pop_min": 113659,
        "pop_other": 0
      },
      "geometry": {
        "type": "Point",
        "coordinates": [
          11.347236513611961,
          59.913486059723652
        ]
      }
    },
    {
      "type": "Feature",
      "properties": {
        "name": "Hamar",
        "worldcity": 0.0,
        "megacity": 0,
        "latitude": 60.820002069700003,
        "longitude": 11.0690015561,
        "pop_max": 29479,
        "pop_min": 29479,
        "pop_other": 0
      },
      "geometry": {
        "type": "Point",
        "coordinates": [
          11.069001556106116,
          60.820002069703264
        ]
      }
    },
    {
      "type": "Feature",
      "properties": {
        "name": "Tønsberg",
        "worldcity": 0.0,
        "megacity": 0,
        "latitude": 59.264001089499999,
        "longitude": 10.4210014708,
        "pop_max": 38914,
        "pop_min": 38914,
        "pop_other": 0
      },
      "geometry": {
        "type": "Point",
        "coordinates": [
          10.4210014708014,
          59.264001089544877
        ]
      }
    },
    {
      "type": "Feature",
      "properties": {
        "name": "Baglung",
        "worldcity": 0.0,
        "megacity": 0,
        "latitude": 28.266696059299999,
        "longitude": 83.5832976202,
        "pop_max": 23296,
        "pop_min": 23296,
        "pop_other": 0
      },
      "geometry": {
        "type": "Point",
        "coordinates": [
          83.58329762017695,
          28.26669605934768
        ]
      }
    },
    {
      "type": "Feature",
      "properties": {
        "name": "Jumla",
        "worldcity": 0.0,
        "megacity": 0,
        "latitude": 29.2500001278,
        "longitude": 82.216701624099997,
        "pop_max": 9073,
        "pop_min": 9073,
        "pop_other": 0
      },
      "geometry": {
        "type": "Point",
        "coordinates": [
          82.216701624098675,
          29.250000127839769
        ]
      }
    },
    {
      "type": "Feature",
      "properties": {
        "name": "Bhairawa",
        "worldcity": 0.0,
        "megacity": 0,
        "latitude": 27.5333040891,
        "longitude": 83.383299530599999,
        "pop_max": 63367,
        "pop_min": 63367,
        "pop_other": 0
      },
      "geometry": {
        "type": "Point",
        "coordinates": [
          83.383299530619865,
          27.533304089120975
        ]
      }
    },
    {
      "type": "Feature",
      "properties": {
        "name": "Dandeldhura",
        "worldcity": 0.0,
        "megacity": 0,
        "latitude": 29.300004159699998,
        "longitude": 80.600004547400005,
        "pop_max": 19014,
        "pop_min": 19014,
        "pop_other": 0
      },
      "geometry": {
        "type": "Point",
        "coordinates": [
          80.600004547416347,
          29.300004159658783
        ]
      }
    },
    {
      "type": "Feature",
      "properties": {
        "name": "Dhangarhi",
        "worldcity": 0.0,
        "megacity": 0,
        "latitude": 28.69499706,
        "longitude": 80.593002602799999,
        "pop_max": 92294,
        "pop_min": 92294,
        "pop_other": 0
      },
      "geometry": {
        "type": "Point",
        "coordinates": [
          80.593002602827937,
          28.69499705998328
        ]
      }
    },
    {
      "type": "Feature",
      "properties": {
        "name": "Ramechhap",
        "worldcity": 0.0,
        "megacity": 0,
        "latitude": 27.325998075699999,
        "longitude": 86.086998528600006,
        "pop_max": 15000,
        "pop_min": 15000,
        "pop_other": 0
      },
      "geometry": {
        "type": "Point",
        "coordinates": [
          86.086998528581432,
          27.325998075689824
        ]
      }
    },
    {
      "type": "Feature",
      "properties": {
        "name": "Bhimphedi",
        "worldcity": 0.0,
        "megacity": 0,
        "latitude": 27.550998098400001,
        "longitude": 85.130001562900006,
        "pop_max": 15000,
        "pop_min": 15000,
        "pop_other": 0
      },
      "geometry": {
        "type": "Point",
        "coordinates": [
          85.130001562877226,
          27.550998098414254
        ]
      }
    },
    {
      "type": "Feature",
      "properties": {
        "name": "Rajbiraj",
        "worldcity": 0.0,
        "megacity": 0,
        "latitude": 26.533296100099999,
        "longitude": 86.733297607400004,
        "pop_max": 33061,
        "pop_min": 33061,
        "pop_other": 0
      },
      "geometry": {
        "type": "Point",
        "coordinates": [
          86.733297607353165,
          26.533296100068526
        ]
      }
    },
    {
      "type": "Feature",
      "properties": {
        "name": "Ilam",
        "worldcity": 0.0,
        "megacity": 0,
        "latitude": 26.908002073500001,
        "longitude": 87.926004532700006,
        "pop_max": 17491,
        "pop_min": 17491,
        "pop_other": 0
      },
      "geometry": {
        "type": "Point",
        "coordinates": [
          87.926004532722231,
          26.908002073480247
        ]
      }
    },
    {
      "type": "Feature",
      "properties": {
        "name": "Wabag",
        "worldcity": 0.0,
        "megacity": 0,
        "latitude": -5.4900000049599997,
        "longitude": 143.71800373799999,
        "pop_max": 3958,
        "pop_min": 3958,
        "pop_other": 0
      },
      "geometry": {
        "type": "Point",
        "coordinates": [
          143.718003738011021,
          -5.490000004964259
        ]
      }
    },
    {
      "type": "Feature",
      "properties": {
        "name": "Vanimo",
        "worldcity": 0.0,
        "megacity": 0,
        "latitude": -2.6900009357200001,
        "longitude": 141.30399662799999,
        "pop_max": 11204,
        "pop_min": 11204,
        "pop_other": 0
      },
      "geometry": {
        "type": "Point",
        "coordinates": [
          141.303996627733227,
          -2.690000935716682
        ]
      }
    },
    {
      "type": "Feature",
      "properties": {
        "name": "Kundiawa",
        "worldcity": 0.0,
        "megacity": 0,
        "latitude": -6.0229978832400004,
        "longitude": 144.96001271399999,
        "pop_max": 9383,
        "pop_min": 9383,
        "pop_other": 0
      },
      "geometry": {
        "type": "Point",
        "coordinates": [
          144.96001271351679,
          -6.022997883237622
        ]
      }
    },
    {
      "type": "Feature",
      "properties": {
        "name": "Kerema",
        "worldcity": 0.0,
        "megacity": 0,
        "latitude": -7.9270018971100003,
        "longitude": 145.83799867900001,
        "pop_max": 5646,
        "pop_min": 5646,
        "pop_other": 0
      },
      "geometry": {
        "type": "Point",
        "coordinates": [
          145.837998678714257,
          -7.927001897107175
        ]
      }
    },
    {
      "type": "Feature",
      "properties": {
        "name": "Arawa",
        "worldcity": 0.0,
        "megacity": 0,
        "latitude": -6.2280000331699998,
        "longitude": 155.56599066800001,
        "pop_max": 40266,
        "pop_min": 40266,
        "pop_other": 0
      },
      "geometry": {
        "type": "Point",
        "coordinates": [
          155.565990667737651,
          -6.228000033165301
        ]
      }
    },
    {
      "type": "Feature",
      "properties": {
        "name": "Lorengau",
        "worldcity": 0.0,
        "megacity": 0,
        "latitude": -2.03200199676,
        "longitude": 147.27999664199999,
        "pop_max": 5806,
        "pop_min": 5806,
        "pop_other": 0
      },
      "geometry": {
        "type": "Point",
        "coordinates": [
          147.279996642175433,
          -2.032001996755184
        ]
      }
    },
    {
      "type": "Feature",
      "properties": {
        "name": "Kimbe",
        "worldcity": 0.0,
        "megacity": 0,
        "latitude": -5.5500028904400001,
        "longitude": 150.143013709,
        "pop_max": 18847,
        "pop_min": 18847,
        "pop_other": 0
      },
      "geometry": {
        "type": "Point",
        "coordinates": [
          150.143013709169622,
          -5.550002890439828
        ]
      }
    },
    {
      "type": "Feature",
      "properties": {
        "name": "Dubăsari",
        "worldcity": 0.0,
        "megacity": 0,
        "latitude": 47.2630556,
        "longitude": 29.1608333,
        "pop_max": 23254,
        "pop_min": 23254,
        "pop_other": 0
      },
      "geometry": {
        "type": "Point",
        "coordinates": [
          29.160833300000036,
          47.263055600000143
        ]
      }
    },
    {
      "type": "Feature",
      "properties": {
        "name": "Qacha's Nek",
        "worldcity": 0.0,
        "megacity": 0,
        "latitude": -30.1172669153,
        "longitude": 28.7019995066,
        "pop_max": 25573,
        "pop_min": 25573,
        "pop_other": 0
      },
      "geometry": {
        "type": "Point",
        "coordinates": [
          28.701999506608843,
          -30.117266915271443
        ]
      }
    },
    {
      "type": "Feature",
      "properties": {
        "name": "Hudur",
        "worldcity": 0.0,
        "megacity": 0,
        "latitude": 4.1832989727600003,
        "longitude": 43.866702605,
        "pop_max": 1639,
        "pop_min": 1639,
        "pop_other": 0
      },
      "geometry": {
        "type": "Point",
        "coordinates": [
          43.866702605012563,
          4.183298972756461
        ]
      }
    },
    {
      "type": "Feature",
      "properties": {
        "name": "Garbahaarey",
        "worldcity": 0.0,
        "megacity": 0,
        "latitude": 3.3270031162499998,
        "longitude": 42.2270016449,
        "pop_max": 12652,
        "pop_min": 12652,
        "pop_other": 0
      },
      "geometry": {
        "type": "Point",
        "coordinates": [
          42.227001644864004,
          3.3270031162549
        ]
      }
    },
    {
      "type": "Feature",
      "properties": {
        "name": "Bu'aale",
        "worldcity": 0.0,
        "megacity": 0,
        "latitude": 1.0833030174,
        "longitude": 42.583302525699999,
        "pop_max": 1490,
        "pop_min": 1490,
        "pop_other": 0
      },
      "geometry": {
        "type": "Point",
        "coordinates": [
          42.583302525698741,
          1.083303017399032
        ]
      }
    },
    {
      "type": "Feature",
      "properties": {
        "name": "Dhuusa Mareeb",
        "worldcity": 0.0,
        "megacity": 0,
        "latitude": 5.7419999842999996,
        "longitude": 46.508004499899997,
        "pop_max": 447,
        "pop_min": 447,
        "pop_other": 0
      },
      "geometry": {
        "type": "Point",
        "coordinates": [
          46.508004499917206,
          5.741999984298388
        ]
      }
    },
    {
      "type": "Feature",
      "properties": {
        "name": "Trincomalee",
        "worldcity": 0.0,
        "megacity": 0,
        "latitude": 8.5689990364100002,
        "longitude": 81.233001553199998,
        "pop_max": 108420,
        "pop_min": 108420,
        "pop_other": 0
      },
      "geometry": {
        "type": "Point",
        "coordinates": [
          81.233001553210045,
          8.568999036414937
        ]
      }
    },
    {
      "type": "Feature",
      "properties": {
        "name": "Puttalan",
        "worldcity": 0.0,
        "megacity": 0,
        "latitude": 8.0330040835900007,
        "longitude": 79.826004542099994,
        "pop_max": 45661,
        "pop_min": 45661,
        "pop_other": 0
      },
      "geometry": {
        "type": "Point",
        "coordinates": [
          79.826004542056694,
          8.03300408358956
        ]
      }
    },
    {
      "type": "Feature",
      "properties": {
        "name": "Ratnapura",
        "worldcity": 0.0,
        "megacity": 0,
        "latitude": 6.6930031318700003,
        "longitude": 80.386002568699993,
        "pop_max": 47832,
        "pop_min": 47832,
        "pop_other": 0
      },
      "geometry": {
        "type": "Point",
        "coordinates": [
          80.386002568682613,
          6.693003131866192
        ]
      }
    },
    {
      "type": "Feature",
      "properties": {
        "name": "Umuahia",
        "worldcity": 0.0,
        "megacity": 0,
        "latitude": 5.5320030410800003,
        "longitude": 7.4860024872100004,
        "pop_max": 264662,
        "pop_min": 264662,
        "pop_other": 0
      },
      "geometry": {
        "type": "Point",
        "coordinates": [
          7.486002487209248,
          5.532003041084806
        ]
      }
    },
    {
      "type": "Feature",
      "properties": {
        "name": "Uyo",
        "worldcity": 0.0,
        "megacity": 0,
        "latitude": 5.0079960554999996,
        "longitude": 7.8499985236800001,
        "pop_max": 554906,
        "pop_min": 436606,
        "pop_other": 0
      },
      "geometry": {
        "type": "Point",
        "coordinates": [
          7.849998523680938,
          5.007996055499859
        ]
      }
    },
    {
      "type": "Feature",
      "properties": {
        "name": "Owerri",
        "worldcity": 0.0,
        "megacity": 0,
        "latitude": 5.4929970532599999,
        "longitude": 7.0260035881,
        "pop_max": 215038,
        "pop_min": 215038,
        "pop_other": 0
      },
      "geometry": {
        "type": "Point",
        "coordinates": [
          7.026003588103549,
          5.492997053256886
        ]
      }
    },
    {
      "type": "Feature",
      "properties": {
        "name": "Sariwon",
        "worldcity": 0.0,
        "megacity": 0,
        "latitude": 38.507004109900002,
        "longitude": 125.762004687,
        "pop_max": 154942,
        "pop_min": 154942,
        "pop_other": 0
      },
      "geometry": {
        "type": "Point",
        "coordinates": [
          125.762004686964815,
          38.507004109884178
        ]
      }
    },
    {
      "type": "Feature",
      "properties": {
        "name": "Sin-Ni",
        "worldcity": 0.0,
        "megacity": 0,
        "latitude": 39.488004149399998,
        "longitude": 125.463996583,
        "pop_max": 19463,
        "pop_min": 19463,
        "pop_other": 0
      },
      "geometry": {
        "type": "Point",
        "coordinates": [
          125.463996583471385,
          39.488004149389099
        ]
      }
    },